[
    {
      "id": 3041563,
      "name": "Андорра-ла-Велла",
      "country": "AD",
      "country_name": "Андорра",
      "coord": {
        "lat": 42.50779,
        "lon": 1.52109
      }
    },
    {
      "id": 292968,
      "name": "Абу-Даби",
      "country": "AE",
      "country_name": "Объединенные Арабские Эмираты",
      "coord": {
        "lat": 24.45118,
        "lon": 54.39696
      }
    },
    {
      "id": 1138958,
      "name": "Кабул",
      "country": "AF",
      "country_name": "Афганистан",
      "coord": {
        "lat": 34.52813,
        "lon": 69.17233
      }
    },
    {
      "id": 3576022,
      "name": "Сент-Джонс",
      "country": "AG",
      "country_name": "Антигуа и Барбуда",
      "coord": {
        "lat": 17.12096,
        "lon": -61.84329
      }
    },
    {
      "id": 3573374,
      "name": "Валли",
      "country": "AI",
      "country_name": "Ангилья",
      "coord": {
        "lat": 18.21704,
        "lon": -63.05783
      }
    },
    {
      "id": 3183875,
      "name": "Тирана",
      "country": "AL",
      "country_name": "Албания",
      "coord": {
        "lat": 41.3275,
        "lon": 19.81889
      }
    },
    {
      "id": 616052,
      "name": "Ереван",
      "country": "AM",
      "country_name": "Армения",
      "coord": {
        "lat": 40.18111,
        "lon": 44.51361
      }
    },
    {
      "id": 2240449,
      "name": "Луанда",
      "country": "AO",
      "country_name": "Ангола",
      "coord": {
        "lat": -8.83682,
        "lon": 13.23432
      }
    },
    {
      "id": 3435910,
      "name": "Буэнос-Айрес",
      "country": "AR",
      "country_name": "Аргентина",
      "coord": {
        "lat": -34.61315,
        "lon": -58.37723
      }
    },
    {
      "id": 5881576,
      "name": "Паго-Паго",
      "country": "AS",
      "country_name": "Восточное Самоа (США)",
      "coord": {
        "lat": -14.27806,
        "lon": -170.7025
      }
    },
    {
      "id": 2761369,
      "name": "Вена",
      "country": "AT",
      "country_name": "Австрия",
      "coord": {
        "lat": 48.20849,
        "lon": 16.37208
      }
    },
    {
      "id": 2172517,
      "name": "Канберра",
      "country": "AU",
      "country_name": "Австралия",
      "coord": {
        "lat": -35.28346,
        "lon": 149.12807
      }
    },
    {
      "id": 3577154,
      "name": "Ораньестад",
      "country": "AW",
      "country_name": "Аруба",
      "coord": {
        "lat": 12.52398,
        "lon": -70.02703
      }
    },
    {
      "id": 3041732,
      "name": "Мариехамн",
      "country": "AX",
      "country_name": "Аландские острова",
      "coord": {
        "lat": 60.09726,
        "lon": 19.93481
      }
    },
    {
      "id": 587084,
      "name": "Баку",
      "country": "AZ",
      "country_name": "Азербайджан",
      "coord": {
        "lat": 40.37767,
        "lon": 49.89201
      }
    },
    {
      "id": 3191281,
      "name": "Сараево",
      "country": "BA",
      "country_name": "Босния и Герцеговина",
      "coord": {
        "lat": 43.84864,
        "lon": 18.35644
      }
    },
    {
      "id": 3374036,
      "name": "Бриджтаун",
      "country": "BB",
      "country_name": "Барбадос",
      "coord": {
        "lat": 13.10732,
        "lon": -59.62021
      }
    },
    {
      "id": 1185241,
      "name": "Дакка",
      "country": "BD",
      "country_name": "Бангладеш",
      "coord": {
        "lat": 23.7104,
        "lon": 90.40744
      }
    },
    {
      "id": 2800866,
      "name": "Брюссель",
      "country": "BE",
      "country_name": "Бельгия",
      "coord": {
        "lat": 50.85045,
        "lon": 4.34878
      }
    },
    {
      "id": 2357048,
      "name": "Уагадугу",
      "country": "BF",
      "country_name": "Буркина-Фасо",
      "coord": {
        "lat": 12.36566,
        "lon": -1.53388
      }
    },
    {
      "id": 727011,
      "name": "София",
      "country": "BG",
      "country_name": "Болгария",
      "coord": {
        "lat": 42.69751,
        "lon": 23.32415
      }
    },
    {
      "id": 290340,
      "name": "Манама",
      "country": "BH",
      "country_name": "Бахрейн",
      "coord": {
        "lat": 26.22787,
        "lon": 50.58565
      }
    },
    {
      "id": 426272,
      "name": "Гитега",
      "country": "BI",
      "country_name": "Бурунди",
      "coord": {
        "lat": -3.42708,
        "lon": 29.92463
      }
    },
    {
      "id": 2392087,
      "name": "Порто-Ново",
      "country": "BJ",
      "country_name": "Бенин",
      "coord": {
        "lat": 6.49646,
        "lon": 2.60359
      }
    },
    {
      "id": 3579132,
      "name": "Густавия",
      "country": "BL",
      "country_name": "Сен-Бартелеми (Карибы)",
      "coord": {
        "lat": 17.89618,
        "lon": -62.84978
      }
    },
    {
      "id": 3573197,
      "name": "Гамильтон",
      "country": "BM",
      "country_name": "Бермудские острова",
      "coord": {
        "lat": 32.2949,
        "lon": -64.78303
      }
    },
    {
      "id": 1820906,
      "name": "Бандар-Сери-Бегаван",
      "country": "BN",
      "country_name": "Бруней",
      "coord": {
        "lat": 4.89035,
        "lon": 114.94006
      }
    },
    {
      "id": 3903987,
      "name": "Сукре",
      "country": "BO",
      "country_name": "Боливия",
      "coord": {
        "lat": -19.03332,
        "lon": -65.26274
      }
    },
    {
      "id": 3513563,
      "name": "Кралендейк",
      "country": "BQ",
      "country_name": "Бонэйр, Синт-Эстатиус и Саба",
      "coord": {
        "lat": 12.15,
        "lon": -68.26667
      }
    },
    {
      "id": 3469058,
      "name": "Бразилиа",
      "country": "BR",
      "country_name": "Бразилия",
      "coord": {
        "lat": -15.77972,
        "lon": -47.92972
      }
    },
    {
      "id": 3571824,
      "name": "Нассау",
      "country": "BS",
      "country_name": "Багамские острова",
      "coord": {
        "lat": 25.05823,
        "lon": -77.34306
      }
    },
    {
      "id": 1252416,
      "name": "Тхимпху",
      "country": "BT",
      "country_name": "Бутан",
      "coord": {
        "lat": 27.46609,
        "lon": 89.64191
      }
    },
    {
      "id": 933773,
      "name": "Габороне",
      "country": "BW",
      "country_name": "Ботсвана",
      "coord": {
        "lat": -24.65451,
        "lon": 25.90859
      }
    },
    {
      "id": 3582672,
      "name": "Бельмопан",
      "country": "BZ",
      "country_name": "Белиз",
      "coord": {
        "lat": 17.25,
        "lon": -88.76667
      }
    },
    {
      "id": 6094817,
      "name": "Оттава",
      "country": "CA",
      "country_name": "Канада",
      "coord": {
        "lat": 45.41117,
        "lon": -75.69812
      }
    },
    {
      "id": 7304591,
      "name": "Уэст-Айленд",
      "country": "CC",
      "country_name": "Кокосовые острова",
      "coord": {
        "lat": -12.15681,
        "lon": 96.82251
      }
    },
    {
      "id": 2314302,
      "name": "Киншаса",
      "country": "CD",
      "country_name": "Демократическая Республика Конго",
      "coord": {
        "lat": -4.32758,
        "lon": 15.31357
      }
    },
    {
      "id": 2389853,
      "name": "Банги",
      "country": "CF",
      "country_name": "Центрально-Африканская Республика (ЦАР)",
      "coord": {
        "lat": 4.36122,
        "lon": 18.55496
      }
    },
    {
      "id": 2260535,
      "name": "Браззавиль",
      "country": "CG",
      "country_name": "Конго",
      "coord": {
        "lat": -4.26613,
        "lon": 15.28318
      }
    },
    {
      "id": 2661552,
      "name": "Берн",
      "country": "CH",
      "country_name": "Швейцария",
      "coord": {
        "lat": 46.94809,
        "lon": 7.44744
      }
    },
    {
      "id": 2279755,
      "name": "Ямусукро",
      "country": "CI",
      "country_name": "Кот-д'Ивуар",
      "coord": {
        "lat": 6.82055,
        "lon": -5.27674
      }
    },
    {
      "id": 4035715,
      "name": "Аваруа",
      "country": "CK",
      "country_name": "Острова Кука",
      "coord": {
        "lat": -21.2075,
        "lon": -159.77545
      }
    },
    {
      "id": 3871336,
      "name": "Сантьяго",
      "country": "CL",
      "country_name": "Чили",
      "coord": {
        "lat": -33.45694,
        "lon": -70.64827
      }
    },
    {
      "id": 2220957,
      "name": "Яунде",
      "country": "CM",
      "country_name": "Камерун",
      "coord": {
        "lat": 3.86667,
        "lon": 11.51667
      }
    },
    {
      "id": 1816670,
      "name": "Пекин",
      "country": "CN",
      "country_name": "Китай",
      "coord": {
        "lat": 39.9075,
        "lon": 116.39723
      }
    },
    {
      "id": 3688689,
      "name": "Богота",
      "country": "CO",
      "country_name": "Колумбия",
      "coord": {
        "lat": 4.60971,
        "lon": -74.08175
      }
    },
    {
      "id": 3621849,
      "name": "Сан-Хосе",
      "country": "CR",
      "country_name": "Коста-Рика",
      "coord": {
        "lat": 9.93333,
        "lon": -84.08333
      }
    },
    {
      "id": 3553478,
      "name": "Гавана",
      "country": "CU",
      "country_name": "Куба",
      "coord": {
        "lat": 23.13302,
        "lon": -82.38304
      }
    },
    {
      "id": 3374333,
      "name": "Прая",
      "country": "CV",
      "country_name": "Кабо-Верде",
      "coord": {
        "lat": 14.93152,
        "lon": -23.51254
      }
    },
    {
      "id": 3513090,
      "name": "Виллемстад",
      "country": "CW",
      "country_name": "Кюрасао",
      "coord": {
        "lat": 12.1084,
        "lon": -68.93354
      }
    },
    {
      "id": 2078127,
      "name": "Флайинг-Фиш-Ков",
      "country": "CX",
      "country_name": "Остров Рождества",
      "coord": {
        "lat": -10.42172,
        "lon": 105.67912
      }
    },
    {
      "id": 146268,
      "name": "Никосия",
      "country": "CY",
      "country_name": "Кипр",
      "coord": {
        "lat": 35.17531,
        "lon": 33.3642
      }
    },
    {
      "id": 3067696,
      "name": "Прага",
      "country": "CZ",
      "country_name": "Чешская Республика",
      "coord": {
        "lat": 50.08804,
        "lon": 14.42076
      }
    },
    {
      "id": 2950159,
      "name": "Берлин",
      "country": "DE",
      "country_name": "Германия",
      "coord": {
        "lat": 52.52437,
        "lon": 13.41053
      }
    },
    {
      "id": 223817,
      "name": "Джибути",
      "country": "DJ",
      "country_name": "Джибути",
      "coord": {
        "lat": 11.58901,
        "lon": 43.14503
      }
    },
    {
      "id": 2618425,
      "name": "Копенгаген",
      "country": "DK",
      "country_name": "Дания",
      "coord": {
        "lat": 55.67594,
        "lon": 12.56553
      }
    },
    {
      "id": 3575635,
      "name": "Розо",
      "country": "DM",
      "country_name": "Доминика",
      "coord": {
        "lat": 15.30174,
        "lon": -61.38808
      }
    },
    {
      "id": 3492908,
      "name": "Санто-Доминго",
      "country": "DO",
      "country_name": "Доминиканская Республика",
      "coord": {
        "lat": 18.47186,
        "lon": -69.89232
      }
    },
    {
      "id": 2507480,
      "name": "Алжир",
      "country": "DZ",
      "country_name": "Алжир",
      "coord": {
        "lat": 36.73225,
        "lon": 3.08746
      }
    },
    {
      "id": 3652462,
      "name": "Кито",
      "country": "EC",
      "country_name": "Эквадор",
      "coord": {
        "lat": -0.22985,
        "lon": -78.52495
      }
    },
    {
      "id": 588409,
      "name": "Таллинн",
      "country": "EE",
      "country_name": "Эстония",
      "coord": {
        "lat": 59.43696,
        "lon": 24.75353
      }
    },
    {
      "id": 360630,
      "name": "Каир",
      "country": "EG",
      "country_name": "Египет",
      "coord": {
        "lat": 30.06263,
        "lon": 31.24967
      }
    },
    {
      "id": 343300,
      "name": "Асмэра",
      "country": "ER",
      "country_name": "Эритрея",
      "coord": {
        "lat": 15.33805,
        "lon": 38.93184
      }
    },
    {
      "id": 3117735,
      "name": "Мадрид",
      "country": "ES",
      "country_name": "Испания",
      "coord": {
        "lat": 40.4165,
        "lon": -3.70256
      }
    },
    {
      "id": 344979,
      "name": "Аддис-Абеба",
      "country": "ET",
      "country_name": "Эфиопия",
      "coord": {
        "lat": 9.02497,
        "lon": 38.74689
      }
    },
    {
      "id": 658225,
      "name": "Хельсинки",
      "country": "FI",
      "country_name": "Финляндия",
      "coord": {
        "lat": 60.16952,
        "lon": 24.93545
      }
    },
    {
      "id": 2198148,
      "name": "Сува",
      "country": "FJ",
      "country_name": "Фиджи",
      "coord": {
        "lat": -18.14161,
        "lon": 178.44149
      }
    },
    {
      "id": 3426691,
      "name": "Порт-Стэнли",
      "country": "FK",
      "country_name": "Фолклендские острова",
      "coord": {
        "lat": -51.69382,
        "lon": -57.85701
      }
    },
    {
      "id": 2081986,
      "name": "Паликир",
      "country": "FM",
      "country_name": "Микронезия",
      "coord": {
        "lat": 6.92477,
        "lon": 158.16109
      }
    },
    {
      "id": 2611396,
      "name": "Торсхавн",
      "country": "FO",
      "country_name": "Фарерские острова",
      "coord": {
        "lat": 62.00973,
        "lon": -6.77164
      }
    },
    {
      "id": 2988507,
      "name": "Париж",
      "country": "FR",
      "country_name": "Франция",
      "coord": {
        "lat": 48.85341,
        "lon": 2.3488
      }
    },
    {
      "id": 2399697,
      "name": "Либревиль",
      "country": "GA",
      "country_name": "Габон",
      "coord": {
        "lat": 0.39241,
        "lon": 9.45356
      }
    },
    {
      "id": 2643743,
      "name": "Лондон",
      "country": "GB",
      "country_name": "Великобритания",
      "coord": {
        "lat": 51.50853,
        "lon": -0.12574
      }
    },
    {
      "id": 3579925,
      "name": "Сент-Джорджес",
      "country": "GD",
      "country_name": "Гренада",
      "coord": {
        "lat": 12.05288,
        "lon": -61.75226
      }
    },
    {
      "id": 611717,
      "name": "Тбилиси",
      "country": "GE",
      "country_name": "Грузия",
      "coord": {
        "lat": 41.69411,
        "lon": 44.83368
      }
    },
    {
      "id": 3382160,
      "name": "Кайенна",
      "country": "GF",
      "country_name": "Гвиана",
      "coord": {
        "lat": 4.93333,
        "lon": -52.33333
      }
    },
    {
      "id": 3042287,
      "name": "Сент-Питер-Порт",
      "country": "GG",
      "country_name": "Гернси",
      "coord": {
        "lat": 49.45981,
        "lon": -2.53527
      }
    },
    {
      "id": 2306104,
      "name": "Аккра",
      "country": "GH",
      "country_name": "Гана",
      "coord": {
        "lat": 5.55602,
        "lon": -0.1969
      }
    },
    {
      "id": 2411585,
      "name": "Гибралтар",
      "country": "GI",
      "country_name": "Гибралтар",
      "coord": {
        "lat": 36.14474,
        "lon": -5.35257
      }
    },
    {
      "id": 3421319,
      "name": "Нуук",
      "country": "GL",
      "country_name": "Гренландия",
      "coord": {
        "lat": 64.18347,
        "lon": -51.72157
      }
    },
    {
      "id": 2413876,
      "name": "Банжул",
      "country": "GM",
      "country_name": "Гамбия",
      "coord": {
        "lat": 13.45274,
        "lon": -16.57803
      }
    },
    {
      "id": 2422465,
      "name": "Конакри",
      "country": "GN",
      "country_name": "Гвинея",
      "coord": {
        "lat": 9.53795,
        "lon": -13.67729
      }
    },
    {
      "id": 3579732,
      "name": "Бас-Тер",
      "country": "GP",
      "country_name": "Гваделупа",
      "coord": {
        "lat": 15.99714,
        "lon": -61.73214
      }
    },
    {
      "id": 2309527,
      "name": "Малабо",
      "country": "GQ",
      "country_name": "Экваториальная Гвинея",
      "coord": {
        "lat": 3.75578,
        "lon": 8.78166
      }
    },
    {
      "id": 264371,
      "name": "Афины",
      "country": "GR",
      "country_name": "Греция",
      "coord": {
        "lat": 37.98376,
        "lon": 23.72784
      }
    },
    {
      "id": 3426466,
      "name": "Грютвикен",
      "country": "GS",
      "country_name": "Южная Георгия и Южные Сандвичевы острова",
      "coord": {
        "lat": -54.28111,
        "lon": -36.5092
      }
    },
    {
      "id": 3598132,
      "name": "Гватемала",
      "country": "GT",
      "country_name": "Гватемала",
      "coord": {
        "lat": 14.64072,
        "lon": -90.51327
      }
    },
    {
      "id": 4044012,
      "name": "Гуам",
      "country": "GU",
      "country_name": "Гуам",
      "coord": {
        "lat": 13.47567,
        "lon": 144.74886
      }
    },
    {
      "id": 2374775,
      "name": "Бисау",
      "country": "GW",
      "country_name": "Гвинея-Бисау",
      "coord": {
        "lat": 11.86357,
        "lon": -15.59767
      }
    },
    {
      "id": 3378644,
      "name": "Джорджтаун",
      "country": "GY",
      "country_name": "Гайана",
      "coord": {
        "lat": 6.80448,
        "lon": -58.15527
      }
    },
    {
      "id": 1819729,
      "name": "Гонконг",
      "country": "HK",
      "country_name": "Гонконг",
      "coord": {
        "lat": 22.27832,
        "lon": 114.17469
      }
    },
    {
      "id": 3600949,
      "name": "Тегусигальпа",
      "country": "HN",
      "country_name": "Гондурас",
      "coord": {
        "lat": 14.0818,
        "lon": -87.20681
      }
    },
    {
      "id": 3186886,
      "name": "Загреб",
      "country": "HR",
      "country_name": "Хорватия",
      "coord": {
        "lat": 45.81444,
        "lon": 15.97798
      }
    },
    {
      "id": 3718426,
      "name": "Порт-о-Пренс",
      "country": "HT",
      "country_name": "Гаити",
      "coord": {
        "lat": 18.54349,
        "lon": -72.33881
      }
    },
    {
      "id": 3054643,
      "name": "Будапешт",
      "country": "HU",
      "country_name": "Венгрия",
      "coord": {
        "lat": 47.49835,
        "lon": 19.04045
      }
    },
    {
      "id": 1642911,
      "name": "Джакарта",
      "country": "ID",
      "country_name": "Индонезия",
      "coord": {
        "lat": -6.21462,
        "lon": 106.84513
      }
    },
    {
      "id": 2964574,
      "name": "Дублин",
      "country": "IE",
      "country_name": "Ирландия",
      "coord": {
        "lat": 53.33306,
        "lon": -6.24889
      }
    },
    {
      "id": 3042237,
      "name": "Дуглас",
      "country": "IM",
      "country_name": "Остров Мэн",
      "coord": {
        "lat": 54.15,
        "lon": -4.48333
      }
    },
    {
      "id": 1261481,
      "name": "Нью-Дели",
      "country": "IN",
      "country_name": "Индия",
      "coord": {
        "lat": 28.63576,
        "lon": 77.22445
      }
    },
    {
      "id": 98182,
      "name": "Багдад",
      "country": "IQ",
      "country_name": "Ирак",
      "coord": {
        "lat": 33.34058,
        "lon": 44.40088
      }
    },
    {
      "id": 112931,
      "name": "Тегеран",
      "country": "IR",
      "country_name": "Иран",
      "coord": {
        "lat": 35.69439,
        "lon": 51.42151
      }
    },
    {
      "id": 3413829,
      "name": "Рейкьявик",
      "country": "IS",
      "country_name": "Исландия",
      "coord": {
        "lat": 64.13548,
        "lon": -21.89541
      }
    },
    {
      "id": 3169070,
      "name": "Рим",
      "country": "IT",
      "country_name": "Италия",
      "coord": {
        "lat": 41.89193,
        "lon": 12.51133
      }
    },
    {
      "id": 3042091,
      "name": "Сент-Хелиер",
      "country": "JE",
      "country_name": "Джерси",
      "coord": {
        "lat": 49.18804,
        "lon": -2.10491
      }
    },
    {
      "id": 3489854,
      "name": "Кингстон",
      "country": "JM",
      "country_name": "Ямайка",
      "coord": {
        "lat": 17.99702,
        "lon": -76.79358
      }
    },
    {
      "id": 250441,
      "name": "Амман",
      "country": "JO",
      "country_name": "Иордания",
      "coord": {
        "lat": 31.95522,
        "lon": 35.94503
      }
    },
    {
      "id": 1850147,
      "name": "Токио",
      "country": "JP",
      "country_name": "Япония",
      "coord": {
        "lat": 35.6895,
        "lon": 139.69171
      }
    },
    {
      "id": 184745,
      "name": "Найроби",
      "country": "KE",
      "country_name": "Кения",
      "coord": {
        "lat": -1.28333,
        "lon": 36.81667
      }
    },
    {
      "id": 1528675,
      "name": "Бишкек",
      "country": "KG",
      "country_name": "Кыргызстан",
      "coord": {
        "lat": 42.87,
        "lon": 74.59
      }
    },
    {
      "id": 1821306,
      "name": "Пномпень",
      "country": "KH",
      "country_name": "Камбоджа",
      "coord": {
        "lat": 11.56245,
        "lon": 104.91601
      }
    },
    {
      "id": 2110257,
      "name": "Тарава",
      "country": "KI",
      "country_name": "Кирибати",
      "coord": {
        "lat": 1.3278,
        "lon": 172.97696
      }
    },
    {
      "id": 921772,
      "name": "Морони",
      "country": "KM",
      "country_name": "Коморские острова",
      "coord": {
        "lat": -11.70216,
        "lon": 43.25506
      }
    },
    {
      "id": 3575551,
      "name": "Бастер",
      "country": "KN",
      "country_name": "Сент-Китс и Невис",
      "coord": {
        "lat": 17.2955,
        "lon": -62.72499
      }
    },
    {
      "id": 1871859,
      "name": "Пхеньян",
      "country": "KP",
      "country_name": "Северная Корея (КНДР)",
      "coord": {
        "lat": 39.03385,
        "lon": 125.75432
      }
    },
    {
      "id": 1835848,
      "name": "Сеул",
      "country": "KR",
      "country_name": "Южная Корея",
      "coord": {
        "lat": 37.566,
        "lon": 126.9784
      }
    },
    {
      "id": 285787,
      "name": "Кувейт",
      "country": "KW",
      "country_name": "Кувейт",
      "coord": {
        "lat": 29.36972,
        "lon": 47.97833
      }
    },
    {
      "id": 3580661,
      "name": "Джорджтаун",
      "country": "KY",
      "country_name": "Каймановы острова",
      "coord": {
        "lat": 19.2866,
        "lon": -81.37436
      }
    },
    {
      "id": 1526273,
      "name": "Нур-Султан",
      "country": "KZ",
      "country_name": "Казахстан",
      "coord": {
        "lat": 51.1801,
        "lon": 71.44598
      }
    },
    {
      "id": 1651944,
      "name": "Вьентьян",
      "country": "LA",
      "country_name": "Лаос",
      "coord": {
        "lat": 17.96667,
        "lon": 102.6
      }
    },
    {
      "id": 276781,
      "name": "Бейрут",
      "country": "LB",
      "country_name": "Ливан",
      "coord": {
        "lat": 33.89332,
        "lon": 35.50157
      }
    },
    {
      "id": 3576812,
      "name": "Кастри",
      "country": "LC",
      "country_name": "Сент-Люсия",
      "coord": {
        "lat": 13.9957,
        "lon": -61.00614
      }
    },
    {
      "id": 3042030,
      "name": "Вадуц",
      "country": "LI",
      "country_name": "Лихтенштейн",
      "coord": {
        "lat": 47.14151,
        "lon": 9.52154
      }
    },
    {
      "id": 1248991,
      "name": "Коломбо",
      "country": "LK",
      "country_name": "Шри-Ланка",
      "coord": {
        "lat": 6.93548,
        "lon": 79.84868
      }
    },
    {
      "id": 2274895,
      "name": "Монровия",
      "country": "LR",
      "country_name": "Либерия",
      "coord": {
        "lat": 6.30054,
        "lon": -10.7969
      }
    },
    {
      "id": 932505,
      "name": "Масеру",
      "country": "LS",
      "country_name": "Лесото",
      "coord": {
        "lat": -29.31667,
        "lon": 27.48333
      }
    },
    {
      "id": 593116,
      "name": "Вильнюс",
      "country": "LT",
      "country_name": "Литва",
      "coord": {
        "lat": 54.68916,
        "lon": 25.2798
      }
    },
    {
      "id": 2960316,
      "name": "Люксембург",
      "country": "LU",
      "country_name": "Люксембург",
      "coord": {
        "lat": 49.61167,
        "lon": 6.13
      }
    },
    {
      "id": 456172,
      "name": "Рига",
      "country": "LV",
      "country_name": "Латвия",
      "coord": {
        "lat": 56.946,
        "lon": 24.10589
      }
    },
    {
      "id": 2210247,
      "name": "Триполи",
      "country": "LY",
      "country_name": "Ливия",
      "coord": {
        "lat": 32.88743,
        "lon": 13.18733
      }
    },
    {
      "id": 2538475,
      "name": "Рабат",
      "country": "MA",
      "country_name": "Марокко",
      "coord": {
        "lat": 34.01325,
        "lon": -6.83255
      }
    },
    {
      "id": 2993458,
      "name": "Монако",
      "country": "MC",
      "country_name": "Монако",
      "coord": {
        "lat": 43.73333,
        "lon": 7.41667
      }
    },
    {
      "id": 618426,
      "name": "Кишинев",
      "country": "MD",
      "country_name": "Молдова",
      "coord": {
        "lat": 47.00556,
        "lon": 28.8575
      }
    },
    {
      "id": 3193044,
      "name": "Подгорица",
      "country": "ME",
      "country_name": "Черногория",
      "coord": {
        "lat": 42.44111,
        "lon": 19.26361
      }
    },
    {
      "id": 3578851,
      "name": "Мариго",
      "country": "MF",
      "country_name": "Сен-Мартен (французский)",
      "coord": {
        "lat": 18.06819,
        "lon": -63.08302
      }
    },
    {
      "id": 1070940,
      "name": "Антананариву",
      "country": "MG",
      "country_name": "Мадагаскар",
      "coord": {
        "lat": -18.91368,
        "lon": 47.53613
      }
    },
    {
      "id": 2113779,
      "name": "Маджуро",
      "country": "MH",
      "country_name": "Маршалловы острова",
      "coord": {
        "lat": 7.08971,
        "lon": 171.38027
      }
    },
    {
      "id": 785842,
      "name": "Скопье",
      "country": "MK",
      "country_name": "Македония",
      "coord": {
        "lat": 41.99646,
        "lon": 21.43141
      }
    },
    {
      "id": 2460596,
      "name": "Бамако",
      "country": "ML",
      "country_name": "Мали",
      "coord": {
        "lat": 12.65,
        "lon": -8
      }
    },
    {
      "id": 6611854,
      "name": "Нейпьидо",
      "country": "MM",
      "country_name": "Мьянма",
      "coord": {
        "lat": 19.745,
        "lon": 96.12972
      }
    },
    {
      "id": 2028462,
      "name": "Улан-Батор",
      "country": "MN",
      "country_name": "Монголия",
      "coord": {
        "lat": 47.90771,
        "lon": 106.88324
      }
    },
    {
      "id": 1821274,
      "name": "Макао",
      "country": "MO",
      "country_name": "Макао (Аомынь)",
      "coord": {
        "lat": 22.20056,
        "lon": 113.54611
      }
    },
    {
      "id": 7828758,
      "name": "Сайпан",
      "country": "MP",
      "country_name": "Марианские острова",
      "coord": {
        "lat": 15.21233,
        "lon": 145.7545
      }
    },
    {
      "id": 3570675,
      "name": "Фор-де-Франс",
      "country": "MQ",
      "country_name": "Мартиника",
      "coord": {
        "lat": 14.60365,
        "lon": -61.07418
      }
    },
    {
      "id": 2377450,
      "name": "Нуакшот",
      "country": "MR",
      "country_name": "Мавритания",
      "coord": {
        "lat": 18.08581,
        "lon": -15.9785
      }
    },
    {
      "id": 3578069,
      "name": "Плимут",
      "country": "MS",
      "country_name": "Монтсеррат",
      "coord": {
        "lat": 16.70555,
        "lon": -62.21292
      }
    },
    {
      "id": 2562305,
      "name": "Валлетта",
      "country": "MT",
      "country_name": "Мальта",
      "coord": {
        "lat": 35.89968,
        "lon": 14.5148
      }
    },
    {
      "id": 934154,
      "name": "Порт-Луи",
      "country": "MU",
      "country_name": "Маврикий",
      "coord": {
        "lat": -20.16194,
        "lon": 57.49889
      }
    },
    {
      "id": 1282027,
      "name": "Мале",
      "country": "MV",
      "country_name": "Мальдивы",
      "coord": {
        "lat": 4.17521,
        "lon": 73.50916
      }
    },
    {
      "id": 927967,
      "name": "Лилонгве",
      "country": "MW",
      "country_name": "Малави",
      "coord": {
        "lat": -13.96692,
        "lon": 33.78725
      }
    },
    {
      "id": 3530597,
      "name": "Мехико",
      "country": "MX",
      "country_name": "Мексика",
      "coord": {
        "lat": 19.42847,
        "lon": -99.12766
      }
    },
    {
      "id": 1735161,
      "name": "Куала-Лумпур",
      "country": "MY",
      "country_name": "Малайзия",
      "coord": {
        "lat": 3.1412,
        "lon": 101.68653
      }
    },
    {
      "id": 1040652,
      "name": "Мапуту",
      "country": "MZ",
      "country_name": "Мозамбик",
      "coord": {
        "lat": -25.96553,
        "lon": 32.58322
      }
    },
    {
      "id": 3352136,
      "name": "Виндхук",
      "country": "NA",
      "country_name": "Намибия",
      "coord": {
        "lat": -22.55941,
        "lon": 17.08323
      }
    },
    {
      "id": 2139521,
      "name": "Нумеа",
      "country": "NC",
      "country_name": "Новая Каледония",
      "coord": {
        "lat": -22.27407,
        "lon": 166.44884
      }
    },
    {
      "id": 2440485,
      "name": "Ниамей",
      "country": "NE",
      "country_name": "Нигер",
      "coord": {
        "lat": 13.51366,
        "lon": 2.1098
      }
    },
    {
      "id": 2161314,
      "name": "Кингстон",
      "country": "NF",
      "country_name": "Норфолк",
      "coord": {
        "lat": -29.05459,
        "lon": 167.96628
      }
    },
    {
      "id": 2352778,
      "name": "Абуджа",
      "country": "NG",
      "country_name": "Нигерия",
      "coord": {
        "lat": 9.05785,
        "lon": 7.49508
      }
    },
    {
      "id": 3617763,
      "name": "Манагуа",
      "country": "NI",
      "country_name": "Никарагуа",
      "coord": {
        "lat": 12.13282,
        "lon": -86.2504
      }
    },
    {
      "id": 2759794,
      "name": "Амстердам",
      "country": "NL",
      "country_name": "Нидерланды",
      "coord": {
        "lat": 52.37403,
        "lon": 4.88969
      }
    },
    {
      "id": 3143244,
      "name": "Осло",
      "country": "NO",
      "country_name": "Норвегия",
      "coord": {
        "lat": 59.91273,
        "lon": 10.74609
      }
    },
    {
      "id": 1283240,
      "name": "Катманду",
      "country": "NP",
      "country_name": "Непал",
      "coord": {
        "lat": 27.70169,
        "lon": 85.3206
      }
    },
    {
      "id": 7626461,
      "name": "Ярен",
      "country": "NR",
      "country_name": "Науру",
      "coord": {
        "lat": -0.55085,
        "lon": 166.9252
      }
    },
    {
      "id": 4036284,
      "name": "Алофи",
      "country": "NU",
      "country_name": "Ниуэ",
      "coord": {
        "lat": -19.05451,
        "lon": -169.91768
      }
    },
    {
      "id": 2179537,
      "name": "Веллингтон",
      "country": "NZ",
      "country_name": "Новая Зеландия",
      "coord": {
        "lat": -41.28664,
        "lon": 174.77557
      }
    },
    {
      "id": 287286,
      "name": "Маскат",
      "country": "OM",
      "country_name": "Оман",
      "coord": {
        "lat": 23.58413,
        "lon": 58.40778
      }
    },
    {
      "id": 3703443,
      "name": "Панама",
      "country": "PA",
      "country_name": "Панама",
      "coord": {
        "lat": 8.9936,
        "lon": -79.51973
      }
    },
    {
      "id": 3936456,
      "name": "Лима",
      "country": "PE",
      "country_name": "Перу",
      "coord": {
        "lat": -12.04318,
        "lon": -77.02824
      }
    },
    {
      "id": 4033936,
      "name": "Папеэте",
      "country": "PF",
      "country_name": "Французская Полинезия",
      "coord": {
        "lat": -17.53733,
        "lon": -149.5665
      }
    },
    {
      "id": 2088122,
      "name": "Порт-Морсби",
      "country": "PG",
      "country_name": "Папуа-Новая Гвинея",
      "coord": {
        "lat": -9.47723,
        "lon": 147.15089
      }
    },
    {
      "id": 1701668,
      "name": "Манила",
      "country": "PH",
      "country_name": "Филиппины",
      "coord": {
        "lat": 14.6042,
        "lon": 120.9822
      }
    },
    {
      "id": 1176615,
      "name": "Исламабад",
      "country": "PK",
      "country_name": "Пакистан",
      "coord": {
        "lat": 33.72148,
        "lon": 73.04329
      }
    },
    {
      "id": 756135,
      "name": "Варшава",
      "country": "PL",
      "country_name": "Польша",
      "coord": {
        "lat": 52.22977,
        "lon": 21.01178
      }
    },
    {
      "id": 3424934,
      "name": "Сен-Пьер",
      "country": "PM",
      "country_name": "Сен-Пьер и Микелон",
      "coord": {
        "lat": 46.77914,
        "lon": -56.1773
      }
    },
    {
      "id": 4030723,
      "name": "Адамстаун",
      "country": "PN",
      "country_name": "Питкэрн",
      "coord": {
        "lat": -25.06597,
        "lon": -130.10147
      }
    },
    {
      "id": 4568127,
      "name": "Сан-Хуан",
      "country": "PR",
      "country_name": "Пуэрто-Рико",
      "coord": {
        "lat": 18.46633,
        "lon": -66.10572
      }
    },
    {
      "id": 2267057,
      "name": "Лиссабон",
      "country": "PT",
      "country_name": "Португалия",
      "coord": {
        "lat": 38.71667,
        "lon": -9.13333
      }
    },
    {
      "id": 8063361,
      "name": "Нгерулмуд",
      "country": "PW",
      "country_name": "Палау",
      "coord": {
        "lat": 7.50077,
        "lon": 134.6238
      }
    },
    {
      "id": 3439389,
      "name": "Асунсьон",
      "country": "PY",
      "country_name": "Парагвай",
      "coord": {
        "lat": -25.28646,
        "lon": -57.647
      }
    },
    {
      "id": 290030,
      "name": "Доха",
      "country": "QA",
      "country_name": "Катар",
      "coord": {
        "lat": 25.28545,
        "lon": 51.53096
      }
    },
    {
      "id": 935264,
      "name": "Сен-Дени",
      "country": "RE",
      "country_name": "Реюньон",
      "coord": {
        "lat": -20.88231,
        "lon": 55.4504
      }
    },
    {
      "id": 683506,
      "name": "Бухарест",
      "country": "RO",
      "country_name": "Румыния",
      "coord": {
        "lat": 44.43225,
        "lon": 26.10626
      }
    },
    {
      "id": 792680,
      "name": "Белград",
      "country": "RS",
      "country_name": "Сербия",
      "coord": {
        "lat": 44.80401,
        "lon": 20.46513
      }
    },
      {
      "id": 202061,
      "name": "Кигали",
      "country": "RW",
      "country_name": "Руанда",
      "coord": {
        "lat": -1.94995,
        "lon": 30.05885
      }
    },
    {
      "id": 108410,
      "name": "Эр-Рияд",
      "country": "SA",
      "country_name": "Саудовская Аравия",
      "coord": {
        "lat": 24.68773,
        "lon": 46.72185
      }
    },
    {
      "id": 2108502,
      "name": "Хониара",
      "country": "SB",
      "country_name": "Соломоновы острова",
      "coord": {
        "lat": -9.43333,
        "lon": 159.95
      }
    },
    {
      "id": 241131,
      "name": "Виктория",
      "country": "SC",
      "country_name": "Сейшельские острова",
      "coord": {
        "lat": -4.62001,
        "lon": 55.45501
      }
    },
    {
      "id": 379252,
      "name": "Хартум",
      "country": "SD",
      "country_name": "Судан",
      "coord": {
        "lat": 15.55177,
        "lon": 32.53241
      }
    },
    {
      "id": 2673730,
      "name": "Стокгольм",
      "country": "SE",
      "country_name": "Швеция",
      "coord": {
        "lat": 59.32938,
        "lon": 18.06871
      }
    },
    {
      "id": 1880252,
      "name": "Сингапур",
      "country": "SG",
      "country_name": "Сингапур",
      "coord": {
        "lat": 1.28967,
        "lon": 103.85007
      }
    },
    {
      "id": 3370903,
      "name": "Джеймстаун",
      "country": "SH",
      "country_name": "Остров Святой Елены",
      "coord": {
        "lat": -15.93872,
        "lon": -5.71675
      }
    },
    {
      "id": 3196359,
      "name": "Любляна",
      "country": "SI",
      "country_name": "Словения",
      "coord": {
        "lat": 46.05108,
        "lon": 14.50513
      }
    },
    {
      "id": 2729907,
      "name": "Лонгйир",
      "country": "SJ",
      "country_name": "Шпицберген и Ян-Майен",
      "coord": {
        "lat": 78.22334,
        "lon": 15.64689
      }
    },
    {
      "id": 3060972,
      "name": "Братислава",
      "country": "SK",
      "country_name": "Словакия",
      "coord": {
        "lat": 48.14816,
        "lon": 17.10674
      }
    },
    {
      "id": 2409306,
      "name": "Фритаун",
      "country": "SL",
      "country_name": "Сьерра-Леоне",
      "coord": {
        "lat": 8.48714,
        "lon": -13.2356
      }
    },
    {
      "id": 3168070,
      "name": "Сан-Марино",
      "country": "SM",
      "country_name": "Сан-Марино",
      "coord": {
        "lat": 43.93667,
        "lon": 12.44639
      }
    },
    {
      "id": 2253354,
      "name": "Дакар",
      "country": "SN",
      "country_name": "Сенегал",
      "coord": {
        "lat": 14.6937,
        "lon": -17.44406
      }
    },
    {
      "id": 53654,
      "name": "Могадишо",
      "country": "SO",
      "country_name": "Сомали",
      "coord": {
        "lat": 2.03711,
        "lon": 45.34375
      }
    },
    {
      "id": 3383330,
      "name": "Парамарибо",
      "country": "SR",
      "country_name": "Суринам",
      "coord": {
        "lat": 5.86638,
        "lon": -55.16682
      }
    },
    {
      "id": 373303,
      "name": "Джуба",
      "country": "SS",
      "country_name": "Южный Судан",
      "coord": {
        "lat": 4.85165,
        "lon": 31.58247
      }
    },
    {
      "id": 2410763,
      "name": "Сан-Томе",
      "country": "ST",
      "country_name": "Сан-Томе и Принсипи",
      "coord": {
        "lat": 0.33654,
        "lon": 6.72732
      }
    },
    {
      "id": 3583361,
      "name": "Сан-Сальвадор",
      "country": "SV",
      "country_name": "Сальвадор",
      "coord": {
        "lat": 13.68935,
        "lon": -89.18718
      }
    },
    {
      "id": 3513392,
      "name": "Филипсбург",
      "country": "SX",
      "country_name": "Сен-Мартен (голландский)",
      "coord": {
        "lat": 18.026,
        "lon": -63.04582
      }
    },
    {
      "id": 170654,
      "name": "Дамаск",
      "country": "SY",
      "country_name": "Сирия",
      "coord": {
        "lat": 33.5102,
        "lon": 36.29128
      }
    },
    {
      "id": 934985,
      "name": "Мбабане",
      "country": "SZ",
      "country_name": "Свазиленд",
      "coord": {
        "lat": -26.31667,
        "lon": 31.13333
      }
    },
    {
      "id": 3576994,
      "name": "Коберн-Таун",
      "country": "TC",
      "country_name": "Теркс и Кайкос",
      "coord": {
        "lat": 21.46122,
        "lon": -71.14188
      }
    },
    {
      "id": 2427123,
      "name": "Нджамена",
      "country": "TD",
      "country_name": "Чад",
      "coord": {
        "lat": 12.10672,
        "lon": 15.0444
      }
    },
    {
      "id": 1546102,
      "name": "Порт-о-Франсе",
      "country": "TF",
      "country_name": "Французские Южные Территории",
      "coord": {
        "lat": -49.34916,
        "lon": 70.21937
      }
    },
    {
      "id": 2365267,
      "name": "Ломе",
      "country": "TG",
      "country_name": "Того",
      "coord": {
        "lat": 6.12874,
        "lon": 1.22154
      }
    },
    {
      "id": 1609350,
      "name": "Бангкок",
      "country": "TH",
      "country_name": "Таиланд",
      "coord": {
        "lat": 13.75398,
        "lon": 100.50144
      }
    },
    {
      "id": 1221874,
      "name": "Душанбе",
      "country": "TJ",
      "country_name": "Таджикистан",
      "coord": {
        "lat": 38.53575,
        "lon": 68.77905
      }
    },
    {
      "id": 1645457,
      "name": "Дили",
      "country": "TL",
      "country_name": "Восточный Тимор",
      "coord": {
        "lat": -8.55861,
        "lon": 125.57361
      }
    },
    {
      "id": 162183,
      "name": "Ашхабад",
      "country": "TM",
      "country_name": "Туркменистан",
      "coord": {
        "lat": 37.95,
        "lon": 58.38333
      }
    },
    {
      "id": 2464470,
      "name": "Тунис",
      "country": "TN",
      "country_name": "Тунис",
      "coord": {
        "lat": 36.81897,
        "lon": 10.16579
      }
    },
    {
      "id": 4032402,
      "name": "Нукуалофа",
      "country": "TO",
      "country_name": "Тонга",
      "coord": {
        "lat": -21.13938,
        "lon": -175.2018
      }
    },
    {
      "id": 323786,
      "name": "Анкара",
      "country": "TR",
      "country_name": "Турция",
      "coord": {
        "lat": 39.91987,
        "lon": 32.85427
      }
    },
    {
      "id": 3573890,
      "name": "Порт-оф-Спейн",
      "country": "TT",
      "country_name": "Тринидад и Тобаго",
      "coord": {
        "lat": 10.66668,
        "lon": -61.51889
      }
    },
    {
      "id": 2110394,
      "name": "Фунафути",
      "country": "TV",
      "country_name": "Тувалу",
      "coord": {
        "lat": -8.52425,
        "lon": 179.19417
      }
    },
    {
      "id": 1668341,
      "name": "Тайбэй",
      "country": "TW",
      "country_name": "Тайвань",
      "coord": {
        "lat": 25.04776,
        "lon": 121.53185
      }
    },
    {
      "id": 160196,
      "name": "Додома",
      "country": "TZ",
      "country_name": "Танзания",
      "coord": {
        "lat": -6.17221,
        "lon": 35.73947
      }
    },
    {
      "id": 703448,
      "name": "Киев",
      "country": "UA",
      "country_name": "Украина",
      "coord": {
        "lat": 50.45466,
        "lon": 30.5238
      }
    },
    {
      "id": 232422,
      "name": "Кампала",
      "country": "UG",
      "country_name": "Уганда",
      "coord": {
        "lat": 0.31628,
        "lon": 32.58219
      }
    },
    {
      "id": 4140963,
      "name": "Вашингтон",
      "country": "US",
      "country_name": "США",
      "coord": {
        "lat": 38.89511,
        "lon": -77.03637
      }
    },
    {
      "id": 3441575,
      "name": "Монтевидео",
      "country": "UY",
      "country_name": "Уругвай",
      "coord": {
        "lat": -34.90328,
        "lon": -56.18816
      }
    },
    {
      "id": 1512569,
      "name": "Ташкент",
      "country": "UZ",
      "country_name": "Узбекистан",
      "coord": {
        "lat": 41.26465,
        "lon": 69.21627
      }
    },
    {
      "id": 6691831,
      "name": "Ватикан",
      "country": "VA",
      "country_name": "Ватикан",
      "coord": {
        "lat": 41.90268,
        "lon": 12.45414
      }
    },
    {
      "id": 3577887,
      "name": "Кингстаун",
      "country": "VC",
      "country_name": "С.винсент.гренад.",
      "coord": {
        "lat": 13.15527,
        "lon": -61.22742
      }
    },
    {
      "id": 3646738,
      "name": "Каракас",
      "country": "VE",
      "country_name": "Венесуэла",
      "coord": {
        "lat": 10.48801,
        "lon": -66.87919
      }
    },
    {
      "id": 3577430,
      "name": "Род-Таун",
      "country": "VG",
      "country_name": "Виргинские острова (Великобритания)",
      "coord": {
        "lat": 18.42693,
        "lon": -64.62079
      }
    },
    {
      "id": 4795467,
      "name": "Шарлотта-Амалия",
      "country": "VI",
      "country_name": "Виргинские острова (США)",
      "coord": {
        "lat": 18.3419,
        "lon": -64.9307
      }
    },
    {
      "id": 1581130,
      "name": "Ханой",
      "country": "VN",
      "country_name": "Вьетнам",
      "coord": {
        "lat": 21.0245,
        "lon": 105.84117
      }
    },
    {
      "id": 2135171,
      "name": "Порт-Вила",
      "country": "VU",
      "country_name": "Вануату",
      "coord": {
        "lat": -17.73648,
        "lon": 168.31366
      }
    },
    {
      "id": 4034821,
      "name": "Мата-Уту",
      "country": "WF",
      "country_name": "Уоллис и Футуна",
      "coord": {
        "lat": -13.28163,
        "lon": -176.17453
      }
    },
    {
      "id": 4035413,
      "name": "Апиа",
      "country": "WS",
      "country_name": "Западное Самоа",
      "coord": {
        "lat": -13.83333,
        "lon": -171.76666
      }
    },
    {
      "id": 786714,
      "name": "Приштина",
      "country": "RS",
      "country_name": "Сербия",
      "coord": {
        "lat": 42.67272,
        "lon": 21.16688
      }
    },
    {
      "id": 71137,
      "name": "Сана",
      "country": "YE",
      "country_name": "Йемен",
      "coord": {
        "lat": 15.35472,
        "lon": 44.20667
      }
    },
    {
      "id": 921815,
      "name": "Мамуцу",
      "country": "YT",
      "country_name": "Майотта",
      "coord": {
        "lat": -12.78234,
        "lon": 45.22878
      }
    },
    {
      "id": 964137,
      "name": "Претория",
      "country": "ZA",
      "country_name": "Южно-Африканская Республика (ЮАР)",
      "coord": {
        "lat": -25.74486,
        "lon": 28.18783
      }
    },
    {
      "id": 909137,
      "name": "Лусака",
      "country": "ZM",
      "country_name": "Замбия",
      "coord": {
        "lat": -15.40669,
        "lon": 28.28713
      }
    },
    {
      "id": 890299,
      "name": "Хараре",
      "country": "ZW",
      "country_name": "Зимбабве",
      "coord": {
        "lat": -17.82772,
        "lon": 31.05337
      }
    },
    {
      "id": 466806,
      "name": "Йошкар-Ола",
      "country": "RU",
      "country_name": "Россия",
      "coord": {
        "lat": 56.63877,
        "lon": 47.89078
      }
    },
    {
      "id": 468902,
      "name": "Ярославль",
      "country": "RU",
      "country_name": "Россия",
      "coord": {
        "lat": 57.62987,
        "lon": 39.87368
      }
    },
    {
      "id": 472045,
      "name": "Воронеж",
      "country": "RU",
      "country_name": "Россия",
      "coord": {
        "lat": 51.67204,
        "lon": 39.1843
      }
    },
    {
      "id": 472459,
      "name": "Вологда",
      "country": "RU",
      "country_name": "Россия",
      "coord": {
        "lat": 59.2239,
        "lon": 39.88398
      }
    },
    {
      "id": 472757,
      "name": "Волгоград",
      "country": "RU",
      "country_name": "Россия",
      "coord": {
        "lat": 48.71939,
        "lon": 44.50183
      }
    },
    {
      "id": 473247,
      "name": "Владимир",
      "country": "RU",
      "country_name": "Россия",
      "coord": {
        "lat": 56.13655,
        "lon": 40.39658
      }
    },
    {
      "id": 473249,
      "name": "Владикавказ",
      "country": "RU",
      "country_name": "Россия",
      "coord": {
        "lat": 43.03667,
        "lon": 44.66778
      }
    },
    {
      "id": 479123,
      "name": "Ульяновск",
      "country": "RU",
      "country_name": "Россия",
      "coord": {
        "lat": 54.32824,
        "lon": 48.38657
      }
    },
    {
      "id": 479561,
      "name": "Уфа",
      "country": "RU",
      "country_name": "Россия",
      "coord": {
        "lat": 54.74306,
        "lon": 55.96779
      }
    },
    {
      "id": 480060,
      "name": "Тверь",
      "country": "RU",
      "country_name": "Россия",
      "coord": {
        "lat": 56.85836,
        "lon": 35.90057
      }
    },
    {
      "id": 480562,
      "name": "Тула",
      "country": "RU",
      "country_name": "Россия",
      "coord": {
        "lat": 54.19609,
        "lon": 37.61822
      }
    },
    {
      "id": 484646,
      "name": "Тамбов",
      "country": "RU",
      "country_name": "Россия",
      "coord": {
        "lat": 52.73169,
        "lon": 41.44326
      }
    },
    {
      "id": 485239,
      "name": "Сыктывкар",
      "country": "RU",
      "country_name": "Россия",
      "coord": {
        "lat": 61.664,
        "lon": 50.815
      }
    },
    {
      "id": 487846,
      "name": "Ставрополь",
      "country": "RU",
      "country_name": "Россия",
      "coord": {
        "lat": 45.0428,
        "lon": 41.9734
      }
    },
    {
      "id": 491687,
      "name": "Смоленск",
      "country": "RU",
      "country_name": "Россия",
      "coord": {
        "lat": 54.7818,
        "lon": 32.0401
      }
    },
    {
      "id": 498677,
      "name": "Саратов",
      "country": "RU",
      "country_name": "Россия",
      "coord": {
        "lat": 51.54056,
        "lon": 46.00861
      }
    },
    {
      "id": 498698,
      "name": "Саранск",
      "country": "RU",
      "country_name": "Россия",
      "coord": {
        "lat": 54.1838,
        "lon": 45.1749
      }
    },
    {
      "id": 498817,
      "name": "Санкт-Петербург",
      "country": "RU",
      "country_name": "Россия",
      "coord": {
        "lat": 59.93863,
        "lon": 30.31413
      }
    },
    {
      "id": 499099,
      "name": "Самара",
      "country": "RU",
      "country_name": "Россия",
      "coord": {
        "lat": 53.20007,
        "lon": 50.15
      }
    },
    {
      "id": 500096,
      "name": "Рязань",
      "country": "RU",
      "country_name": "Россия",
      "coord": {
        "lat": 54.6269,
        "lon": 39.6916
      }
    },
    {
      "id": 501175,
      "name": "Ростов-на-Дону",
      "country": "RU",
      "country_name": "Россия",
      "coord": {
        "lat": 47.23135,
        "lon": 39.72328
      }
    },
    {
      "id": 504341,
      "name": "Псков",
      "country": "RU",
      "country_name": "Россия",
      "coord": {
        "lat": 57.8136,
        "lon": 28.3496
      }
    },
    {
      "id": 509820,
      "name": "Петрозаводск",
      "country": "RU",
      "country_name": "Россия",
      "coord": {
        "lat": 61.78491,
        "lon": 34.34691
      }
    },
    {
      "id": 511196,
      "name": "Пермь",
      "country": "RU",
      "country_name": "Россия",
      "coord": {
        "lat": 58.01046,
        "lon": 56.25017
      }
    },
    {
      "id": 511565,
      "name": "Пенза",
      "country": "RU",
      "country_name": "Россия",
      "coord": {
        "lat": 53.20066,
        "lon": 45.00464
      }
    },
    {
      "id": 515003,
      "name": "Оренбург",
      "country": "RU",
      "country_name": "Россия",
      "coord": {
        "lat": 51.7727,
        "lon": 55.0988
      }
    },
    {
      "id": 515012,
      "name": "Орел",
      "country": "RU",
      "country_name": "Россия",
      "coord": {
        "lat": 52.96508,
        "lon": 36.07849
      }
    },
    {
      "id": 519336,
      "name": "Великий Новгород",
      "country": "RU",
      "country_name": "Россия",
      "coord": {
        "lat": 58.52131,
        "lon": 31.27104
      }
    },
    {
      "id": 520555,
      "name": "Нижний Новгород",
      "country": "RU",
      "country_name": "Россия",
      "coord": {
        "lat": 56.32867,
        "lon": 44.00205
      }
    },
    {
      "id": 523392,
      "name": "Нарьян-Мар",
      "country": "RU",
      "country_name": "Россия",
      "coord": {
        "lat": 67.63869,
        "lon": 53.00371
      }
    },
    {
      "id": 523523,
      "name": "Нальчик",
      "country": "RU",
      "country_name": "Россия",
      "coord": {
        "lat": 43.49806,
        "lon": 43.61889
      }
    },
    {
      "id": 524305,
      "name": "Мурманск",
      "country": "RU",
      "country_name": "Россия",
      "coord": {
        "lat": 68.97917,
        "lon": 33.09251
      }
    },
    {
      "id": 528293,
      "name": "Майкоп",
      "country": "RU",
      "country_name": "Россия",
      "coord": {
        "lat": 44.60778,
        "lon": 40.10583
      }
    },
    {
      "id": 532096,
      "name": "Махачкла",
      "country": "RU",
      "country_name": "Россия",
      "coord": {
        "lat": 42.97638,
        "lon": 47.50236
      }
    },
    {
      "id": 535121,
      "name": "Липецк",
      "country": "RU",
      "country_name": "Россия",
      "coord": {
        "lat": 52.60311,
        "lon": 39.57076
      }
    },
    {
      "id": 538560,
      "name": "Курск",
      "country": "RU",
      "country_name": "Россия",
      "coord": {
        "lat": 51.73733,
        "lon": 36.18735
      }
    },
    {
      "id": 542420,
      "name": "Краснодар",
      "country": "RU",
      "country_name": "Россия",
      "coord": {
        "lat": 45.04484,
        "lon": 38.97603
      }
    },
    {
      "id": 543878,
      "name": "Кострома",
      "country": "RU",
      "country_name": "Россия",
      "coord": {
        "lat": 57.76647,
        "lon": 40.92686
      }
    },
    {
      "id": 548408,
      "name": "Киров",
      "country": "RU",
      "country_name": "Россия",
      "coord": {
        "lat": 58.59665,
        "lon": 49.66007
      }
    },
    {
      "id": 551487,
      "name": "Казань",
      "country": "RU",
      "country_name": "Россия",
      "coord": {
        "lat": 55.78874,
        "lon": 49.12214
      }
    },
    {
      "id": 553915,
      "name": "Калуга",
      "country": "RU",
      "country_name": "Россия",
      "coord": {
        "lat": 54.5293,
        "lon": 36.27542
      }
    },
    {
      "id": 554234,
      "name": "Калининград",
      "country": "RU",
      "country_name": "Россия",
      "coord": {
        "lat": 54.70649,
        "lon": 20.51095
      }
    },
    {
      "id": 554840,
      "name": "Ижевск",
      "country": "RU",
      "country_name": "Россия",
      "coord": {
        "lat": 56.84976,
        "lon": 53.20448
      }
    },
    {
      "id": 555312,
      "name": "Иваново",
      "country": "RU",
      "country_name": "Россия",
      "coord": {
        "lat": 56.99719,
        "lon": 40.97139
      }
    },
    {
      "id": 558418,
      "name": "Грозный",
      "country": "RU",
      "country_name": "Россия",
      "coord": {
        "lat": 43.31195,
        "lon": 45.68895
      }
    },
    {
      "id": 563514,
      "name": "Элиста",
      "country": "RU",
      "country_name": "Россия",
      "coord": {
        "lat": 46.30778,
        "lon": 44.25583
      }
    },
    {
      "id": 569154,
      "name": "Черкесск",
      "country": "RU",
      "country_name": "Россия",
      "coord": {
        "lat": 44.22333,
        "lon": 42.05778
      }
    },
    {
      "id": 569696,
      "name": "Чебоксары",
      "country": "RU",
      "country_name": "Россия",
      "coord": {
        "lat": 56.13222,
        "lon": 47.25194
      }
    },
    {
      "id": 571476,
      "name": "Брянск",
      "country": "RU",
      "country_name": "Россия",
      "coord": {
        "lat": 53.25209,
        "lon": 34.37167
      }
    },
    {
      "id": 578072,
      "name": "Белгород",
      "country": "RU",
      "country_name": "Россия",
      "coord": {
        "lat": 50.61074,
        "lon": 36.58015
      }
    },
    {
      "id": 580497,
      "name": "Астрахань",
      "country": "RU",
      "country_name": "Россия",
      "coord": {
        "lat": 46.34968,
        "lon": 48.04076
      }
    },
    {
      "id": 581049,
      "name": "Архангельск",
      "country": "RU",
      "country_name": "Россия",
      "coord": {
        "lat": 64.5401,
        "lon": 40.5433
      }
    },
    {
      "id": 1486209,
      "name": "Екатеринбург",
      "country": "RU",
      "country_name": "Россия",
      "coord": {
        "lat": 56.8519,
        "lon": 60.6122
      }
    },
    {
      "id": 1488754,
      "name": "Тюмень",
      "country": "RU",
      "country_name": "Россия",
      "coord": {
        "lat": 57.15222,
        "lon": 65.52722
      }
    },
    {
      "id": 1489425,
      "name": "Томск",
      "country": "RU",
      "country_name": "Россия",
      "coord": {
        "lat": 56.49771,
        "lon": 84.97437
      }
    },
    {
      "id": 1493197,
      "name": "Салехард",
      "country": "RU",
      "country_name": "Россия",
      "coord": {
        "lat": 66.53,
        "lon": 66.60194
      }
    },
    {
      "id": 1496153,
      "name": "Омск",
      "country": "RU",
      "country_name": "Россия",
      "coord": {
        "lat": 54.99244,
        "lon": 73.36859
      }
    },
    {
      "id": 1496747,
      "name": "Новосибирск",
      "country": "RU",
      "country_name": "Россия",
      "coord": {
        "lat": 55.0415,
        "lon": 82.9346
      }
    },
    {
      "id": 1500973,
      "name": "Кызыл",
      "country": "RU",
      "country_name": "Россия",
      "coord": {
        "lat": 51.71081,
        "lon": 94.45338
      }
    },
    {
      "id": 1501321,
      "name": "Курган",
      "country": "RU",
      "country_name": "Россия",
      "coord": {
        "lat": 55.45,
        "lon": 65.33333
      }
    },
    {
      "id": 1502026,
      "name": "Красноярск",
      "country": "RU",
      "country_name": "Россия",
      "coord": {
        "lat": 56.01839,
        "lon": 92.86717
      }
    },
    {
      "id": 1503772,
      "name": "Ханты-Мансийск",
      "country": "RU",
      "country_name": "Россия",
      "coord": {
        "lat": 61.00417,
        "lon": 69.00194
      }
    },
    {
      "id": 1503901,
      "name": "Кемерово",
      "country": "RU",
      "country_name": "Россия",
      "coord": {
        "lat": 55.33333,
        "lon": 86.08333
      }
    },
    {
      "id": 1506271,
      "name": "Горно-Алтайск",
      "country": "RU",
      "country_name": "Россия",
      "coord": {
        "lat": 51.96056,
        "lon": 85.91892
      }
    },
    {
      "id": 1508291,
      "name": "Челябинск",
      "country": "RU",
      "country_name": "Россия",
      "coord": {
        "lat": 55.15402,
        "lon": 61.42915
      }
    },
    {
      "id": 1510853,
      "name": "Барнаул",
      "country": "RU",
      "country_name": "Россия",
      "coord": {
        "lat": 53.36056,
        "lon": 83.76361
      }
    },
    {
      "id": 1512236,
      "name": "Абакан",
      "country": "RU",
      "country_name": "Россия",
      "coord": {
        "lat": 53.71556,
        "lon": 91.42917
      }
    },
    {
      "id": 2013159,
      "name": "Якутск",
      "country": "RU",
      "country_name": "Россия",
      "coord": {
        "lat": 62.03389,
        "lon": 129.73306
      }
    },
    {
      "id": 2013348,
      "name": "Владивосток",
      "country": "RU",
      "country_name": "Россия",
      "coord": {
        "lat": 43.10562,
        "lon": 131.87353
      }
    },
    {
      "id": 2014407,
      "name": "Улан-Удэ",
      "country": "RU",
      "country_name": "Россия",
      "coord": {
        "lat": 51.82721,
        "lon": 107.60627
      }
    },
    {
      "id": 2022890,
      "name": "Хабаровск",
      "country": "RU",
      "country_name": "Россия",
      "coord": {
        "lat": 48.48271,
        "lon": 135.08379
      }
    },
    {
      "id": 2023469,
      "name": "Иркутск",
      "country": "RU",
      "country_name": "Россия",
      "coord": {
        "lat": 52.29778,
        "lon": 104.29639
      }
    },
    {
      "id": 2025339,
      "name": "Чита",
      "country": "RU",
      "country_name": "Россия",
      "coord": {
        "lat": 52.03171,
        "lon": 113.50087
      }
    },
    {
      "id": 2026609,
      "name": "Благовещенск",
      "country": "RU",
      "country_name": "Россия",
      "coord": {
        "lat": 50.27961,
        "lon": 127.5405
      }
    },
    {
      "id": 2026643,
      "name": "Биробиджан",
      "country": "RU",
      "country_name": "Россия",
      "coord": {
        "lat": 48.79284,
        "lon": 132.92386
      }
    },
    {
      "id": 2119441,
      "name": "Южно-Сахалинск",
      "country": "RU",
      "country_name": "Россия",
      "coord": {
        "lat": 46.95407,
        "lon": 142.73603
      }
    },
    {
      "id": 2122104,
      "name": "Петропавловск-Камчатский",
      "country": "RU",
      "country_name": "Россия",
      "coord": {
        "lat": 53.04444,
        "lon": 158.65076
      }
    },
    {
      "id": 2123628,
      "name": "Магадан",
      "country": "RU",
      "country_name": "Россия",
      "coord": {
        "lat": 59.5638,
        "lon": 150.80347
      }
    },
    {
      "id": 2127202,
      "name": "Анадырь",
      "country": "RU",
      "country_name": "Россия",
      "coord": {
        "lat": 64.73424,
        "lon": 177.5103
      }
    },
    {
      "id": 6313621,
      "name": "Магас",
      "country": "RU",
      "country_name": "Россия",
      "coord": {
        "lat": 43.22257,
        "lon": 44.77261
      }
    },
    {
      "id": 694423,
      "name": "Севастополь",
      "country": "RU",
      "country_name": "Россия",
      "coord": {
        "lat": 44.60795,
        "lon": 33.52134
      }
    }
]